{
  "ports": [
    { "index": 1, "id": "EETLL", "name": "Tallinn", "country": "Estonia", "region": "Europe", "latitude": 59.4427, "longitude": 24.7536, "popularity": 0.75 },
    { "index": 2, "id": "EERGA", "name": "Riga", "country": "Latvia", "region": "Europe", "latitude": 56.9676, "longitude": 24.1052, "popularity": 0.70 },
    { "index": 3, "id": "LVVNT", "name": "Ventspils", "country": "Latvia", "region": "Europe", "latitude": 57.3894, "longitude": 21.5606, "popularity": 0.55 },
    { "index": 4, "id": "LTKLJ", "name": "Klaipeda", "country": "Lithuania", "region": "Europe", "latitude": 55.7068, "longitude": 21.1389, "popularity": 0.65 },
    { "index": 5, "id": "FIHEL", "name": "Helsinki", "country": "Finland", "region": "Europe", "latitude": 60.1699, "longitude": 24.9384, "popularity": 0.80 },
    { "index": 6, "id": "FIKOK", "name": "Kotka", "country": "Finland", "region": "Europe", "latitude": 60.4665, "longitude": 26.9459, "popularity": 0.60 },
    { "index": 7, "id": "FITKU", "name": "Turku", "country": "Finland", "region": "Europe", "latitude": 60.4518, "longitude": 22.2666, "popularity": 0.55 },
    { "index": 8, "id": "PLGDY", "name": "Gdynia", "country": "Poland", "region": "Europe", "latitude": 54.5189, "longitude": 18.5305, "popularity": 0.75 },
    { "index": 9, "id": "PLGDA", "name": "Gdansk", "country": "Poland", "region": "Europe", "latitude": 54.352, "longitude": 18.6466, "popularity": 0.80 },
    { "index": 10, "id": "SESTP", "name": "Stockholm", "country": "Sweden", "region": "Europe", "latitude": 59.3293, "longitude": 18.0686, "popularity": 0.85 },
    { "index": 11, "id": "SEGOT", "name": "Gothenburg", "country": "Sweden", "region": "Europe", "latitude": 57.7089, "longitude": 11.9746, "popularity": 0.80 },
    { "index": 12, "id": "RUKGD", "name": "Kaliningrad", "country": "Russia", "region": "Europe", "latitude": 54.7065, "longitude": 20.5106, "popularity": 0.60 },
    { "index": 13, "id": "RULED", "name": "St. Petersburg", "country": "Russia", "region": "Europe", "latitude": 59.9343, "longitude": 30.3351, "popularity": 0.85 },
    { "index": 14, "id": "NLRTM", "name": "Rotterdam", "country": "Netherlands", "region": "Europe", "latitude": 51.9244, "longitude": 4.4777, "popularity": 1.00 },
    { "index": 15, "id": "DEHAM", "name": "Hamburg", "country": "Germany", "region": "Europe", "latitude": 53.5511, "longitude": 9.9937, "popularity": 0.95 },
    { "index": 16, "id": "DEBKE", "name": "Bremerhaven", "country": "Germany", "region": "Europe", "latitude": 53.5395, "longitude": 8.5809, "popularity": 0.85 },
    { "index": 17, "id": "DEBRV", "name": "Bremen", "country": "Germany", "region": "Europe", "latitude": 53.0793, "longitude": 8.8017, "popularity": 0.75 },
    { "index": 18, "id": "BEANR", "name": "Antwerp", "country": "Belgium", "region": "Europe", "latitude": 51.2194, "longitude": 4.4025, "popularity": 0.90 },
    { "index": 19, "id": "BEZEE", "name": "Zeebrugge", "country": "Belgium", "region": "Europe", "latitude": 51.3289, "longitude": 3.2081, "popularity": 0.70 },
    { "index": 20, "id": "FRLEH", "name": "Le Havre", "country": "France", "region": "Europe", "latitude": 49.4944, "longitude": 0.1079, "popularity": 0.85 },
    { "index": 21, "id": "FRPAR", "name": "Paris", "country": "France", "region": "Europe", "latitude": 48.8566, "longitude": 2.3522, "popularity": 0.65 },
    { "index": 22, "id": "FRMRS", "name": "Marseille", "country": "France", "region": "Europe", "latitude": 43.2965, "longitude": 5.3698, "popularity": 0.80 },
    { "index": 23, "id": "ESVLC", "name": "Valencia", "country": "Spain", "region": "Europe", "latitude": 39.4699, "longitude": -0.3773, "popularity": 0.85 },
    { "index": 24, "id": "ESBCN", "name": "Barcelona", "country": "Spain", "region": "Europe", "latitude": 41.3851, "longitude": 2.1734, "popularity": 0.85 },
    { "index": 25, "id": "ESALG", "name": "Algeciras", "country": "Spain", "region": "Europe", "latitude": 36.1447, "longitude": -5.4534, "popularity": 0.80 },
    { "index": 26, "id": "ESBIO", "name": "Bilbao", "country": "Spain", "region": "Europe", "latitude": 43.263, "longitude": -2.935, "popularity": 0.70 },
    { "index": 27, "id": "PTLIS", "name": "Lisbon", "country": "Portugal", "region": "Europe", "latitude": 38.7223, "longitude": -9.1393, "popularity": 0.70 },
    { "index": 28, "id": "PTSIE", "name": "Sines", "country": "Portugal", "region": "Europe", "latitude": 37.9563, "longitude": -8.861, "popularity": 0.65 },
    { "index": 29, "id": "ITGOA", "name": "Genoa", "country": "Italy", "region": "Europe", "latitude": 44.4056, "longitude": 8.9463, "popularity": 0.85 },
    { "index": 30, "id": "ITGIT", "name": "Gioia Tauro", "country": "Italy", "region": "Europe", "latitude": 38.4259, "longitude": 15.8969, "popularity": 0.75 },
    { "index": 31, "id": "ITNAP", "name": "Naples", "country": "Italy", "region": "Europe", "latitude": 40.8518, "longitude": 14.2681, "popularity": 0.70 },
    { "index": 32, "id": "ITLIV", "name": "Livorno", "country": "Italy", "region": "Europe", "latitude": 43.5485, "longitude": 10.3106, "popularity": 0.65 },
    { "index": 33, "id": "ITVCE", "name": "Venice", "country": "Italy", "region": "Europe", "latitude": 45.4408, "longitude": 12.3155, "popularity": 0.70 },
    { "index": 34, "id": "ITTRS", "name": "Trieste", "country": "Italy", "region": "Europe", "latitude": 45.6495, "longitude": 13.7768, "popularity": 0.65 },
    { "index": 35, "id": "GBFXT", "name": "Felixstowe", "country": "United Kingdom", "region": "Europe", "latitude": 51.9625, "longitude": 1.3511, "popularity": 0.90 },
    { "index": 36, "id": "GBLGP", "name": "London Gateway", "country": "United Kingdom", "region": "Europe", "latitude": 51.5074, "longitude": 0.0566, "popularity": 0.85 },
    { "index": 37, "id": "GBSOU", "name": "Southampton", "country": "United Kingdom", "region": "Europe", "latitude": 50.9097, "longitude": -1.4044, "popularity": 0.85 },
    { "index": 38, "id": "GBLIV", "name": "Liverpool", "country": "United Kingdom", "region": "Europe", "latitude": 53.4084, "longitude": -2.9916, "popularity": 0.75 },
    { "index": 39, "id": "GRTSK", "name": "Thessaloniki", "country": "Greece", "region": "Europe", "latitude": 40.6401, "longitude": 22.9444, "popularity": 0.65 },
    { "index": 40, "id": "GRPIR", "name": "Piraeus", "country": "Greece", "region": "Europe", "latitude": 37.9429, "longitude": 23.6469, "popularity": 0.85 },
    { "index": 41, "id": "TRMER", "name": "Mersin", "country": "Turkey", "region": "Europe", "latitude": 36.8, "longitude": 34.6333, "popularity": 0.75 },
    { "index": 42, "id": "TRIST", "name": "Istanbul", "country": "Turkey", "region": "Europe", "latitude": 41.0082, "longitude": 28.9784, "popularity": 0.85 },
    { "index": 43, "id": "TRZMI", "name": "Izmir", "country": "Turkey", "region": "Europe", "latitude": 38.4237, "longitude": 27.1428, "popularity": 0.70 },
    { "index": 44, "id": "DKCPH", "name": "Copenhagen", "country": "Denmark", "region": "Europe", "latitude": 55.6761, "longitude": 12.5683, "popularity": 0.75 },
    { "index": 45, "id": "DKAAR", "name": "Aarhus", "country": "Denmark", "region": "Europe", "latitude": 56.1572, "longitude": 10.2107, "popularity": 0.70 },
    { "index": 46, "id": "NOOSL", "name": "Oslo", "country": "Norway", "region": "Europe", "latitude": 59.9139, "longitude": 10.7522, "popularity": 0.70 },
    { "index": 47, "id": "HRSPK", "name": "Split", "country": "Croatia", "region": "Europe", "latitude": 43.5081, "longitude": 16.4402, "popularity": 0.55 },
    { "index": 48, "id": "HRRJK", "name": "Rijeka", "country": "Croatia", "region": "Europe", "latitude": 45.3271, "longitude": 14.4422, "popularity": 0.60 },
    { "index": 49, "id": "SIKOP", "name": "Koper", "country": "Slovenia", "region": "Europe", "latitude": 45.5488, "longitude": 13.7291, "popularity": 0.65 },
    { "index": 50, "id": "ROCND", "name": "Constanta", "country": "Romania", "region": "Europe", "latitude": 44.1598, "longitude": 28.6348, "popularity": 0.65 },
    { "index": 51, "id": "BGVAR", "name": "Varna", "country": "Bulgaria", "region": "Europe", "latitude": 43.2141, "longitude": 27.9147, "popularity": 0.60 },
    { "index": 52, "id": "CNSHA", "name": "Shanghai", "country": "China", "region": "Asia", "latitude": 31.2304, "longitude": 121.4737, "popularity": 1.00 },
    { "index": 53, "id": "CNSHE", "name": "Shenzhen", "country": "China", "region": "Asia", "latitude": 22.5431, "longitude": 114.0579, "popularity": 0.95 },
    { "index": 54, "id": "CNNBO", "name": "Ningbo-Zhoushan", "country": "China", "region": "Asia", "latitude": 29.8683, "longitude": 121.544, "popularity": 0.95 },
    { "index": 55, "id": "CNQIN", "name": "Qingdao", "country": "China", "region": "Asia", "latitude": 36.0671, "longitude": 120.3826, "popularity": 0.90 },
    { "index": 56, "id": "CNGUA", "name": "Guangzhou", "country": "China", "region": "Asia", "latitude": 23.1291, "longitude": 113.2644, "popularity": 0.90 },
    { "index": 57, "id": "CNXMN", "name": "Xiamen", "country": "China", "region": "Asia", "latitude": 24.4798, "longitude": 118.0819, "popularity": 0.85 },
    { "index": 58, "id": "CNTXG", "name": "Tianjin", "country": "China", "region": "Asia", "latitude": 39.0842, "longitude": 117.2009, "popularity": 0.85 },
    { "index": 59, "id": "CNDLC", "name": "Dalian", "country": "China", "region": "Asia", "latitude": 38.914, "longitude": 121.6147, "popularity": 0.80 },
    { "index": 60, "id": "HKHKG", "name": "Hong Kong", "country": "Hong Kong", "region": "Asia", "latitude": 22.3193, "longitude": 114.1694, "popularity": 0.95 },
    { "index": 61, "id": "TWKHH", "name": "Kaohsiung", "country": "Taiwan", "region": "Asia", "latitude": 22.6273, "longitude": 120.3014, "popularity": 0.85 },
    { "index": 62, "id": "TWTPE", "name": "Taipei", "country": "Taiwan", "region": "Asia", "latitude": 25.033, "longitude": 121.5654, "popularity": 0.75 },
    { "index": 63, "id": "TWKEL", "name": "Keelung", "country": "Taiwan", "region": "Asia", "latitude": 25.1276, "longitude": 121.7392, "popularity": 0.70 },
    { "index": 64, "id": "JPYOK", "name": "Yokohama", "country": "Japan", "region": "Asia", "latitude": 35.4437, "longitude": 139.638, "popularity": 0.90 },
    { "index": 65, "id": "JPTYO", "name": "Tokyo", "country": "Japan", "region": "Asia", "latitude": 35.6762, "longitude": 139.6503, "popularity": 0.90 },
    { "index": 66, "id": "JPNGO", "name": "Nagoya", "country": "Japan", "region": "Asia", "latitude": 35.1815, "longitude": 136.9066, "popularity": 0.85 },
    { "index": 67, "id": "JPOSA", "name": "Osaka", "country": "Japan", "region": "Asia", "latitude": 34.6937, "longitude": 135.5023, "popularity": 0.85 },
    { "index": 68, "id": "JPKOB", "name": "Kobe", "country": "Japan", "region": "Asia", "latitude": 34.6901, "longitude": 135.1956, "popularity": 0.80 },
    { "index": 69, "id": "KRPUS", "name": "Busan", "country": "South Korea", "region": "Asia", "latitude": 35.1796, "longitude": 129.0756, "popularity": 0.95 },
    { "index": 70, "id": "KRINC", "name": "Incheon", "country": "South Korea", "region": "Asia", "latitude": 37.4563, "longitude": 126.7052, "popularity": 0.85 },
    { "index": 71, "id": "KRKAN", "name": "Gwangyang", "country": "South Korea", "region": "Asia", "latitude": 34.9067, "longitude": 127.6963, "popularity": 0.75 },
    { "index": 72, "id": "SGSIN", "name": "Singapore", "country": "Singapore", "region": "Asia", "latitude": 1.3521, "longitude": 103.8198, "popularity": 1.00 },
    { "index": 73, "id": "MYPKG", "name": "Port Klang", "country": "Malaysia", "region": "Asia", "latitude": 3, "longitude": 101.4, "popularity": 0.90 },
    { "index": 74, "id": "MYTPP", "name": "Tanjung Pelepas", "country": "Malaysia", "region": "Asia", "latitude": 1.3667, "longitude": 103.55, "popularity": 0.85 },
    { "index": 75, "id": "MYPEN", "name": "Penang", "country": "Malaysia", "region": "Asia", "latitude": 5.4164, "longitude": 100.3327, "popularity": 0.75 },
    { "index": 76, "id": "IDTPP", "name": "Tanjung Priok", "country": "Indonesia", "region": "Asia", "latitude": -6.1286, "longitude": 106.888, "popularity": 0.85 },
    { "index": 77, "id": "IDBLW", "name": "Belawan", "country": "Indonesia", "region": "Asia", "latitude": 3.7868, "longitude": 98.6855, "popularity": 0.65 },
    { "index": 78, "id": "IDMAK", "name": "Makassar", "country": "Indonesia", "region": "Asia", "latitude": -5.1477, "longitude": 119.4327, "popularity": 0.60 },
    { "index": 79, "id": "THBKK", "name": "Bangkok", "country": "Thailand", "region": "Asia", "latitude": 13.7563, "longitude": 100.5018, "popularity": 0.85 },
    { "index": 80, "id": "THLCH", "name": "Laem Chabang", "country": "Thailand", "region": "Asia", "latitude": 13.1061, "longitude": 100.9158, "popularity": 0.80 },
    { "index": 81, "id": "VNHPH", "name": "Hai Phong", "country": "Vietnam", "region": "Asia", "latitude": 20.8449, "longitude": 106.6881, "popularity": 0.75 },
    { "index": 82, "id": "VNSGN", "name": "Ho Chi Minh City", "country": "Vietnam", "region": "Asia", "latitude": 10.8231, "longitude": 106.6297, "popularity": 0.80 },
    { "index": 83, "id": "VNVUT", "name": "Vung Tau", "country": "Vietnam", "region": "Asia", "latitude": 10.346, "longitude": 107.0843, "popularity": 0.70 },
    { "index": 84, "id": "PHMNL", "name": "Manila", "country": "Philippines", "region": "Asia", "latitude": 14.5995, "longitude": 120.9842, "popularity": 0.80 },
    { "index": 85, "id": "PHCEB", "name": "Cebu", "country": "Philippines", "region": "Asia", "latitude": 10.3157, "longitude": 123.8854, "popularity": 0.65 },
    { "index": 86, "id": "PHDVO", "name": "Davao", "country": "Philippines", "region": "Asia", "latitude": 7.0707, "longitude": 125.6087, "popularity": 0.60 },
    { "index": 87, "id": "USNYC", "name": "New York", "country": "United States", "region": "North America", "latitude": 40.7128, "longitude": -74.006, "popularity": 0.95 },
    { "index": 88, "id": "USLAX", "name": "Los Angeles", "country": "United States", "region": "North America", "latitude": 33.7701, "longitude": -118.1937, "popularity": 0.95 },
    { "index": 89, "id": "USLGB", "name": "Long Beach", "country": "United States", "region": "North America", "latitude": 33.7701, "longitude": -118.1937, "popularity": 0.90 },
    { "index": 90, "id": "USSAV", "name": "Savannah", "country": "United States", "region": "North America", "latitude": 32.0809, "longitude": -81.0912, "popularity": 0.85 },
    { "index": 91, "id": "USHOU", "name": "Houston", "country": "United States", "region": "North America", "latitude": 29.7604, "longitude": -95.3698, "popularity": 0.85 },
    { "index": 92, "id": "USORF", "name": "Norfolk", "country": "United States", "region": "North America", "latitude": 36.8508, "longitude": -76.2859, "popularity": 0.80 },
    { "index": 93, "id": "USOAK", "name": "Oakland", "country": "United States", "region": "North America", "latitude": 37.8044, "longitude": -122.2711, "popularity": 0.80 },
    { "index": 94, "id": "USSEA", "name": "Seattle", "country": "United States", "region": "North America", "latitude": 47.6062, "longitude": -122.3321, "popularity": 0.80 },
    { "index": 95, "id": "CAVAN", "name": "Vancouver", "country": "Canada", "region": "North America", "latitude": 49.2827, "longitude": -123.1207, "popularity": 0.85 },
    { "index": 96, "id": "CAMTR", "name": "Montreal", "country": "Canada", "region": "North America", "latitude": 45.5017, "longitude": -73.5673, "popularity": 0.75 },
    { "index": 97, "id": "AEDXB", "name": "Dubai", "country": "United Arab Emirates", "region": "Middle East", "latitude": 25.2048, "longitude": 55.2708, "popularity": 0.90 },
    { "index": 98, "id": "AEJEA", "name": "Jebel Ali", "country": "United Arab Emirates", "region": "Middle East", "latitude": 24.9857, "longitude": 55.0078, "popularity": 0.90 },
    { "index": 99, "id": "SAJED", "name": "Jeddah", "country": "Saudi Arabia", "region": "Middle East", "latitude": 21.4858, "longitude": 39.1925, "popularity": 0.80 },
    { "index": 100, "id": "OMMCT", "name": "Salalah", "country": "Oman", "region": "Middle East", "latitude": 17.0151, "longitude": 54.0924, "popularity": 0.70 },
    { "index": 101, "id": "EGPSD", "name": "Port Said", "country": "Egypt", "region": "Middle East", "latitude": 31.2653, "longitude": 32.3019, "popularity": 0.75 },
    { "index": 102, "id": "ZADUR", "name": "Durban", "country": "South Africa", "region": "Africa", "latitude": -29.8587, "longitude": 31.0218, "popularity": 0.80 },
    { "index": 103, "id": "ZACPT", "name": "Cape Town", "country": "South Africa", "region": "Africa", "latitude": -33.9249, "longitude": 18.4241, "popularity": 0.75 },
    { "index": 104, "id": "MAPTM", "name": "Tangier Med", "country": "Morocco", "region": "Africa", "latitude": 35.8969, "longitude": -5.5051, "popularity": 0.75 },
    { "index": 105, "id": "NGAPP", "name": "Apapa", "country": "Nigeria", "region": "Africa", "latitude": 6.45, "longitude": 3.3667, "popularity": 0.65 },
    { "index": 106, "id": "KEMBA", "name": "Mombasa", "country": "Kenya", "region": "Africa", "latitude": -4.0435, "longitude": 39.6682, "popularity": 0.65 },
    { "index": 107, "id": "AUSYD", "name": "Sydney", "country": "Australia", "region": "Oceania", "latitude": -33.8688, "longitude": 151.2093, "popularity": 0.85 },
    { "index": 108, "id": "AUMEL", "name": "Melbourne", "country": "Australia", "region": "Oceania", "latitude": -37.8136, "longitude": 144.9631, "popularity": 0.85 },
    { "index": 109, "id": "AUBNE", "name": "Brisbane", "country": "Australia", "region": "Oceania", "latitude": -27.4698, "longitude": 153.0251, "popularity": 0.80 },
    { "index": 110, "id": "AUFRE", "name": "Fremantle", "country": "Australia", "region": "Oceania", "latitude": -32.056, "longitude": 115.7471, "popularity": 0.75 },
    { "index": 111, "id": "NZAKL", "name": "Auckland", "country": "New Zealand", "region": "Oceania", "latitude": -36.8485, "longitude": 174.7633, "popularity": 0.75 },
    { "index": 112, "id": "BRRIG", "name": "Rio Grande", "country": "Brazil", "region": "South America", "latitude": -32.0353, "longitude": -52.1086, "popularity": 0.70 },
    { "index": 113, "id": "BRSSZ", "name": "Santos", "country": "Brazil", "region": "South America", "latitude": -23.9619, "longitude": -46.3242, "popularity": 0.80 },
    { "index": 114, "id": "ARBUE", "name": "Buenos Aires", "country": "Argentina", "region": "South America", "latitude": -34.6037, "longitude": -58.3816, "popularity": 0.75 },
    { "index": 115, "id": "CLVAP", "name": "Valparaiso", "country": "Chile", "region": "South America", "latitude": -33.0472, "longitude": -71.6127, "popularity": 0.70 },
    { "index": 116, "id": "CLSAI", "name": "San Antonio", "country": "Chile", "region": "South America", "latitude": -33.5931, "longitude": -71.6086, "popularity": 0.65 },
    { "index": 117, "id": "PECLL", "name": "Callao", "country": "Peru", "region": "South America", "latitude": -12.0464, "longitude": -77.1343, "popularity": 0.65 },
    { "index": 118, "id": "COBUN", "name": "Buenaventura", "country": "Colombia", "region": "South America", "latitude": 3.8801, "longitude": -77.0312, "popularity": 0.60 },
    { "index": 119, "id": "PAMIT", "name": "Manzanillo", "country": "Panama", "region": "Central America", "latitude": 9.3592, "longitude": -79.8986, "popularity": 0.75 },
    { "index": 120, "id": "PAONX", "name": "Colon", "country": "Panama", "region": "Central America", "latitude": 9.3592, "longitude": -79.8986, "popularity": 0.70 }
  ]
}